{ "aq_list":
  [
{
    "FeedID": "cam_aq",
    "Name": "NWC-M11",
    "StationID": "S-1134",
    "SensorTypes": [
        "CO",
        "NO",
        "NO2",
        "O3",
        "SO2",
        "Temperature",
        "Humidity",
        "Pressure",
        "PM1",
        "PM2_5",
        "PM10",
        "TSP"
    ],
    "Longitude": 0.0821,
    "Latitude": 52.22,
    "Description": "North West Cambridge near Motorway"
},
{
    "Latitude": 52.221,
    "FeedID": "cam_aq",
    "SensorTypes": [
        "CO",
        "NO",
        "NO2",
        "O3",
        "SO2",
        "Temperature",
        "Humidity",
        "Pressure",
        "PM1",
        "PM2_5",
        "PM10",
        "TSP"
    ],
    "Name": "NWC-Huntingdon Rd",
    "StationID": "S-1135",
    "Longitude": 0.0913,
    "Description": "North West Cambridge near new school"
},
{
    "FeedID": "cam_aq",
    "Longitude": 0.1336,
    "Name": "Hills-Brooklands",
    "SensorTypes": [
        "CO",
        "NO",
        "NO2",
        "O3",
        "SO2",
        "Temperature",
        "Humidity",
        "Pressure",
        "PM1",
        "PM2_5",
        "PM10",
        "TSP"
    ],
    "StationID": "S-1136",
    "Latitude": 52.192
},
{
    "Name": "Hills-CherryH",
    "FeedID": "cam_aq",
    "SensorTypes": [
        "CO",
        "NO",
        "NO2",
        "O3",
        "SO2",
        "Temperature",
        "Humidity",
        "Pressure",
        "PM1",
        "PM2_5",
        "PM10",
        "TSP"
    ],
    "StationID": "S-1137",
    "Latitude": 52.189,
    "Longitude": 0.136
},
{
    "SensorTypes": [
        "CO",
        "NO",
        "NO2",
        "O3",
        "SO2",
        "Temperature",
        "Humidity",
        "Pressure",
        "PM1",
        "PM2_5",
        "PM10",
        "TSP"
    ],
    "Latitude": 52.199,
    "FeedID": "cam_aq",
    "Name": "Gonville Place (roadside)",
    "StationID": "S-1138",
    "Longitude": 0.1275
},
{
    "StationID": "S-1139",
    "FeedID": "cam_aq",
    "Longitude": 0.131,
    "Name": "Parkside",
    "SensorTypes": [
        "CO",
        "NO",
        "NO2",
        "O3",
        "SO2",
        "Temperature",
        "Humidity",
        "Pressure",
        "PM1",
        "PM2_5",
        "PM10",
        "TSP"
    ],
    "Latitude": 52.203
},
{
    "SensorTypes": [
        "CO",
        "NO",
        "NO2",
        "O3",
        "SO2",
        "Temperature",
        "Humidity",
        "Pressure",
        "PM1",
        "PM2_5",
        "PM10",
        "TSP"
    ],
    "Latitude": 52.177,
    "FeedID": "cam_aq",
    "Name": "Adden_Puddicombe",
    "StationID": "S-1140",
    "Longitude": 0.1387
},
{
    "Latitude": 52.179,
    "FeedID": "cam_aq",
    "Name": "Hills-Long",
    "Longitude": 0.1425,
    "StationID": "S-1141",
    "SensorTypes": [
        "CO",
        "NO",
        "NO2",
        "O3",
        "SO2",
        "Temperature",
        "Humidity",
        "Pressure",
        "PM1",
        "PM2_5",
        "PM10",
        "TSP"
    ]
},
{
    "SensorTypes": [
        "CO",
        "NO",
        "NO2",
        "O3",
        "SO2",
        "Temperature",
        "Humidity",
        "Pressure",
        "PM1",
        "PM2_5",
        "PM10",
        "TSP"
    ],
    "Longitude": 0.1316,
    "FeedID": "cam_aq",
    "Name": "Flying Pig",
    "Latitude": 52.194,
    "StationID": "S-1142"
},
{
    "FeedID": "cam_aq",
    "Latitude": 52.173,
    "Name": "Adden Rosie",
    "StationID": "S-1143",
    "Longitude": 0.1402,
    "SensorTypes": [
        "CO",
        "NO",
        "NO2",
        "O3",
        "SO2",
        "Temperature",
        "Humidity",
        "Pressure",
        "PM1",
        "PM2_5",
        "PM10",
        "TSP"
    ]
},
{
    "FeedID": "cam_aq",
    "Name": "Adden-Crick RdnAbt",
    "SensorTypes": [
        "CO",
        "NO",
        "NO2",
        "O3",
        "SO2",
        "Temperature",
        "Humidity",
        "Pressure",
        "PM1",
        "PM2_5",
        "PM10",
        "TSP"
    ],
    "Longitude": 0.1351,
    "Latitude": 52.176,
    "StationID": "S-1144"
},
{
    "StationID": "S-1145",
    "Latitude": 52.195,
    "FeedID": "cam_aq",
    "Longitude": 0.1313,
    "Name": "Hills-Station",
    "SensorTypes": [
        "CO",
        "NO",
        "NO2",
        "O3",
        "SO2",
        "Temperature",
        "Humidity",
        "Pressure",
        "PM1",
        "PM2_5",
        "PM10",
        "TSP"
    ]
},
{
    "Longitude": 0.1435,
    "FeedID": "cam_aq",
    "Latitude": 52.176,
    "Name": "Adden Main Ent",
    "StationID": "S-1146",
    "SensorTypes": [
        "CO",
        "NO",
        "NO2",
        "O3",
        "SO2",
        "Temperature",
        "Humidity",
        "Pressure",
        "PM1",
        "PM2_5",
        "PM10",
        "TSP"
    ]
},
{
    "Longitude": 0.1484,
    "FeedID": "cam_aq",
    "StationID": "S-1147",
    "Name": "Hills-RedCross",
    "SensorTypes": [
        "CO",
        "NO",
        "NO2",
        "O3",
        "SO2",
        "Temperature",
        "Humidity",
        "Pressure",
        "PM1",
        "PM2_5",
        "PM10",
        "TSP"
    ],
    "Latitude": 52.174
},
{
    "Latitude": 52.176,
    "Name": "Clincal School",
    "Longitude": 0.1419,
    "FeedID": "cam_aq",
    "StationID": "S-1148",
    "SensorTypes": [
        "CO",
        "NO",
        "NO2",
        "O3",
        "SO2",
        "Temperature",
        "Humidity",
        "Pressure",
        "PM1",
        "PM2_5",
        "PM10",
        "TSP"
    ]
},
{
    "SensorTypes": [
        "CO",
        "NO",
        "NO2",
        "O3",
        "SO2",
        "Temperature",
        "Humidity",
        "Pressure",
        "PM1",
        "PM2_5",
        "PM10",
        "TSP"
    ],
    "FeedID": "cam_aq",
    "Latitude": 52.176,
    "Name": "Adden Bus Stn",
    "Longitude": 0.145,
    "StationID": "S-1149"
},
{
    "Latitude": 52.199,
    "FeedID": "cam_aq",
    "SensorTypes": [
        "CO",
        "NO",
        "NO2",
        "O3",
        "SO2",
        "Temperature",
        "Humidity",
        "Pressure",
        "PM1",
        "PM2_5",
        "PM10",
        "TSP"
    ],
    "StationID": "S-1150",
    "Name": "Gonville Place",
    "Longitude": 0.1276
},
{
    "FeedID": "cam_aq",
    "StationID": "S-1151",
    "Name": "Adden-CIMR",
    "Longitude": 0.1367,
    "SensorTypes": [
        "CO",
        "NO",
        "NO2",
        "O3",
        "SO2",
        "Temperature",
        "Humidity",
        "Pressure",
        "PM1",
        "PM2_5",
        "PM10",
        "TSP"
    ],
    "Latitude": 52.174
},
{
    "Longitude": 0.1221,
    "FeedID": "cam_aq",
    "Name": "Lensfield-Trumpington",
    "Latitude": 52.198,
    "SensorTypes": [
        "CO",
        "NO",
        "NO2",
        "O3",
        "SO2",
        "Temperature",
        "Humidity",
        "Pressure",
        "PM1",
        "PM2_5",
        "PM10",
        "TSP"
    ],
    "StationID": "S-1152"
},
{
    "Longitude": 0.1396,
    "Name": "Adden Richard Howe",
    "FeedID": "cam_aq",
    "StationID": "S-1153",
    "SensorTypes": [
        "CO",
        "NO",
        "NO2",
        "O3",
        "SO2",
        "Temperature",
        "Humidity",
        "Pressure",
        "PM1",
        "PM2_5",
        "PM10",
        "TSP"
    ],
    "Latitude": 52.176
}
  ]
}
